{
  "msg": "success",
  "code": 200,
  "data": [
  {
    "lng": 113.84127525561729,
    "name": "雪花啤酒沼气站",
    "type": "沼气站",
    "lat": 22.982318278046574
  },
  {
    "lng": 113.71091610342643,
    "name": "信义调压站",
    "type": "调压站",
    "lat": 22.75791747531482
  },
  {
    "address": "东莞市樟木头镇樟洋社区樟洋电厂旁",
    "lng": 114.10606817511623,
    "serviceArea": "樟木头镇",
    "chargeMan": "车良健",
    "companyName": "东莞市新奥燃气有限公司",
    "name": "樟木头门站",
    "phoneNum": "13712076662",
    "type": "门站",
    "lat": 22.888952765636827
  },
  {
    "address": "东莞市环城南路雅园工业区",
    "lng": 113.76552617415291,
    "serviceArea": "南城街道",
    "chargeMan": "邓一平",
    "companyName": "东莞市新奥燃气有限公司",
    "name": "南城调压站",
    "phoneNum": "13450660299",
    "type": "调压站",
    "lat": 22.98340696115688
  },
  {
    "address": "东莞市松山湖工业东路大族粤铭激光厂旁",
    "lng": 113.90908800986969,
    "serviceArea": "松山湖街道",
    "chargeMan": "邓一平",
    "companyName": "东莞市新奥燃气有限公司",
    "name": "松山湖调压站",
    "phoneNum": "13450660299",
    "type": "调压站",
    "lat": 22.962249330809207
  },
  {
    "address": "东莞市虎门镇威远环岛路蛇头湾虎门电厂内",
    "lng": 113.63501228862131,
    "serviceArea": "虎门镇",
    "chargeMan": "周清元",
    "companyName": "东莞市新奥燃气有限公司",
    "name": "虎门调压站",
    "phoneNum": "15989906007",
    "type": "调压站",
    "lat": 22.81902067748441
  },
  {
    "address": "东莞市洪梅镇沙望路长塘桥旁",
    "lng": 113.62274247934788,
    "serviceArea": "洪梅镇",
    "chargeMan": "黄海云",
    "companyName": "东莞市新奥燃气有限公司",
    "name": "洪梅调压站",
    "phoneNum": "15913719024",
    "type": "调压站",
    "lat": 23.0250428224519
  },
  {
    "address": "东莞市高埗镇北王路塘厦村",
    "lng": 113.75855398652602,
    "serviceArea": "高埗镇",
    "chargeMan": "黄海云",
    "companyName": "东莞市新奥燃气有限公司",
    "name": "高埗门站",
    "phoneNum": "15913719024",
    "type": "门站",
    "lat": 23.131180711485715
  },
  {
    "volume": 300000,
    "address": "东莞市高埗镇北王路塘厦村",
    "lng": 113.75858796475777,
    "serviceArea": "高埗镇,石碣镇,中堂镇",
    "chargeMan": "黄海云",
    "companyName": "东莞市新奥燃气有限公司",
    "name": "高埗储配站",
    "phoneNum": "15913719024",
    "type": "储配站",
    "lat": 23.13102067867456
  },
  {
    "address": "东莞市东城同沙科技园同欣路附近",
    "lng": 113.84144477658882,
    "serviceArea": "东城街道",
    "chargeMan": "邓一平",
    "companyName": "东莞市新奥燃气有限公司",
    "name": "东城门站",
    "phoneNum": "13450660299",
    "type": "门站",
    "lat": 22.9816147523539
  },
  {
    "volume": 600000,
    "address": "东莞市长安镇上沙中山南路29号",
    "lng": 113.7518946633317,
    "serviceArea": "长安镇,虎门镇",
    "chargeMan": "周清元",
    "companyName": "东莞市新奥燃气有限公司",
    "name": "长安储配站",
    "phoneNum": "15989906007",
    "type": "储配站",
    "lat": 22.767578269728173
  },
  {
    "address": "东莞市企石镇东平大道与环企大道交叉处",
    "lng": 114.05033928165831,
    "serviceArea": "企石镇",
    "chargeMan": "车良健",
    "companyName": "东莞市新奥燃气有限公司",
    "name": "企石调压站",
    "phoneNum": "13712076662",
    "type": "调压站",
    "lat": 23.045516597760837
  },
  {
    "address": "东莞市洪梅调压站望洪路",
    "lng": 113.63198511804956,
    "serviceArea": "望牛墩镇",
    "chargeMan": "黄海云",
    "companyName": "东莞市新奥燃气有限公司",
    "name": "望洪路台玻调压计量撬",
    "phoneNum": "15913719024",
    "type": "调压计量撬",
    "lat": 23.01606114071603
  },
  {
    "address": "东莞市东城区龙樟路双田二手车公司旁",
    "lng": 113.80365704377701,
    "serviceArea": "东城街道",
    "chargeMan": "黄海云",
    "companyName": "东莞市新奥燃气有限公司",
    "name": "东城调压站",
    "phoneNum": "15913719024",
    "type": "调压站",
    "lat": 23.07043351615894
  },
  {
    "volume": 120000,
    "address": "东莞市东坑镇骏发一路1号",
    "lng": 113.96478718255807,
    "serviceArea": "东坑镇,横沥镇",
    "chargeMan": "黄海云",
    "companyName": "东莞市新奥燃气有限公司",
    "name": "东坑储配站",
    "phoneNum": "15913719024",
    "type": "储配站",
    "lat": 22.98865847221377
  },
  {
    "address": "东莞市厚街镇南环路加气站后面",
    "lng": 113.6422234935225,
    "serviceArea": "厚街镇",
    "chargeMan": "邓一平",
    "companyName": "东莞市新奥燃气有限公司",
    "name": "厚街调压站",
    "phoneNum": "13450660299",
    "type": "调压站",
    "lat": 22.942880844048695
  },
  {
    "address": "东莞市长安镇花灯盏路",
    "lng": 113.79260355590782,
    "serviceArea": "长安镇",
    "chargeMan": "车良健",
    "companyName": "东莞市新奥燃气有限公司",
    "name": "长安调压站",
    "phoneNum": "13712076662",
    "type": "调压站",
    "lat": 22.837606790953103
  },
  {
    "address": "东莞市谢岗镇曹乐社区横岭村",
    "lng": 114.09310672151264,
    "serviceArea": "谢岗镇",
    "chargeMan": "车良健",
    "companyName": "东莞市新奥燃气有限公司",
    "name": "谢岗门站",
    "phoneNum": "13712076662",
    "type": "门站",
    "lat": 22.984179795818896
  },
  {
    "address": "东莞市塘厦镇清溪大道第五水厂对面",
    "lng": 114.12605521667511,
    "serviceArea": "塘厦镇",
    "chargeMan": "车良健",
    "companyName": "东莞市新奥燃气有限公司",
    "name": "塘厦调压站",
    "phoneNum": "13712076662",
    "type": "调压站",
    "lat": 22.850815579167847
  },
  {
    "volume": 360000,
    "address": "东莞市麻涌镇新沙工业区一横路西",
    "lng": 113.5562996271072,
    "serviceArea": "麻涌镇,中堂镇",
    "chargeMan": "周清元",
    "companyName": "东莞市新奥燃气有限公司",
    "name": "麻涌储配站",
    "phoneNum": "15989906007",
    "type": "储配站",
    "lat": 23.015247023052005
  },
  {
    "address": "东莞市常平镇多宝针织厂旁",
    "lng": 114.084165606215,
    "serviceArea": "常平镇",
    "chargeMan": "车良健",
    "companyName": "东莞市新奥燃气有限公司",
    "name": "常平调压站",
    "phoneNum": "13712076662",
    "type": "调压站",
    "lat": 22.992314192378227
  }
]
}
